[
    {
        "STORE_NAME": "Sultanahmet Divan Yolu No:76",
        "LATITUDE": "41.00824",
        "LONGITUDE": "28.97379",
        "STORE_ADDRESS": "Alemdar Mah. Divanyolu Cad. No:76/A Istanbul 34 TR 34110",
        "STORE_OPEN_AT": 7,
        "STORE_CLOSE_AT": 24,
        "STORE_TYPE": "Starbucks"
    },
    {
        "STORE_NAME": "Cemberlitas",
        "LATITUDE": "41.00869",
        "LONGITUDE": "28.96963",
        "STORE_ADDRESS": "Yeniceriler Caddesi Mimar Hayrettin Mahallesi Istanbul 34 TR 34126",
        "STORE_OPEN_AT": 7,
        "STORE_CLOSE_AT": 24,
        "STORE_TYPE": "Starbucks"
    },
    {
        "STORE_NAME": "Istanbul Galataport HOSS",
        "LATITUDE": "41.02447",
        "LONGITUDE": "28.98042",
        "STORE_ADDRESS": "Kilicali Pasa Mahallesi Kemankes Sokak No 40 A Galataport Beyoglu Istanbul Istanbul 34 TR 34425",
        "STORE_OPEN_AT": 7,
        "STORE_CLOSE_AT": 24,
        "STORE_TYPE": "Starbucks"
    },
    {
        "STORE_NAME": "Tophane Reserve",
        "LATITUDE": "41.02586",
        "LONGITUDE": "28.98042",
        "STORE_ADDRESS": "Mumhane Cad. Beyoglu Istanbul 33 TR 34425",
        "STORE_OPEN_AT": 7,
        "STORE_CLOSE_AT": 24,
        "STORE_TYPE": "Starbucks"
    },
    {
        "STORE_NAME": "Galataport Meydan",
        "LATITUDE": "41.02747",
        "LONGITUDE": "28.98427",
        "STORE_ADDRESS": "6 Meclis i Mebusan Caddesi Istanbul 34 TR 34425",
        "STORE_OPEN_AT": 7,
        "STORE_CLOSE_AT": 24,
        "STORE_TYPE": "Starbucks"
    },
    {
        "STORE_NAME": "Tunel Narmanli Han",
        "LATITUDE": "41.0291",
        "LONGITUDE": "28.97476",
        "STORE_ADDRESS": "Istiklal Caddesi Asmali Mescit Mahallesi Istanbul 34 TR 34430",
        "STORE_OPEN_AT": 7,
        "STORE_CLOSE_AT": 24,
        "STORE_TYPE": "Starbucks"
    },
    {
        "STORE_NAME": "Findikli",
        "LATITUDE": "41.03035",
        "LONGITUDE": "28.9885",
        "STORE_ADDRESS": "Meclisi Mebusan Cad CBS Is Hani No 47 Istanbul 34 TR 34398",
        "STORE_OPEN_AT": 7,
        "STORE_CLOSE_AT": 24,
        "STORE_TYPE": "Starbucks"
    },
    {
        "STORE_NAME": "Istiklal Cad No:18",
        "LATITUDE": "41.03572",
        "LONGITUDE": "28.98285",
        "STORE_ADDRESS": "Istiklal Cad. NO 18 Beyoglu Istanbul 34 TR 00000",
        "STORE_OPEN_AT": 7,
        "STORE_CLOSE_AT": 24,
        "STORE_TYPE": "Starbucks"
    },
    {
        "STORE_NAME": "Istanbul Taksim 360",
        "LATITUDE": "41.03644",
        "LONGITUDE": "28.97919",
        "STORE_ADDRESS": "Sehit Muhtar Tarlabasi Blv no 150 D 170 Beyoglu Istanbul Istanbul 34 TR 34435",
        "STORE_OPEN_AT": 7,
        "STORE_CLOSE_AT": 24,
        "STORE_TYPE": "Starbucks"
    },
    {
        "STORE_NAME": "Taksim Meydani",
        "LATITUDE": "41.03657",
        "LONGITUDE": "28.98629",
        "STORE_ADDRESS": "3 Nolu Bagimsiz Bolum Taksim Meydani Taki Zafer Cad. Istanbul 34 TR 34437",
        "STORE_OPEN_AT": 7,
        "STORE_CLOSE_AT": 24,
        "STORE_TYPE": "Starbucks"
    },
    {
        "STORE_NAME": "Vatan Caddesi",
        "LATITUDE": "41.01706",
        "LONGITUDE": "28.94105",
        "STORE_ADDRESS": "Aksemsettin Mah Adnan Menderes Vatan Bulvari No 46 Istanbul 34 TR 34080",
        "STORE_OPEN_AT": 7,
        "STORE_CLOSE_AT": 24,
        "STORE_TYPE": "Starbucks"
    },
    {
        "STORE_NAME": "Dolapdere",
        "LATITUDE": "41.04012",
        "LONGITUDE": "28.97637",
        "STORE_ADDRESS": "Kurtulus Deresi Caddesi Istanbul 34 TR 34440",
        "STORE_OPEN_AT": 7,
        "STORE_CLOSE_AT": 24,
        "STORE_TYPE": "Starbucks"
    },
    {
        "STORE_NAME": "Uskudar Mimar Sinan Carsisi",
        "LATITUDE": "41.02377",
        "LONGITUDE": "29.01731",
        "STORE_ADDRESS": "Mimar Sinan Atlas Ck NO2 Uskudar Istanbul Uskudar, Istanbul 34 TR 34672",
        "STORE_OPEN_AT": 7,
        "STORE_CLOSE_AT": 24,
        "STORE_TYPE": "Starbucks"
    },
    {
        "STORE_NAME": "Elmadag",
        "LATITUDE": "41.04188",
        "LONGITUDE": "28.98667",
        "STORE_ADDRESS": "Harbiye Mah Cumhuriyet Cad Istanbul 34 TR 34367",
        "STORE_OPEN_AT": 7,
        "STORE_CLOSE_AT": 24,
        "STORE_TYPE": "Starbucks"
    },
    {
        "STORE_NAME": "Kadikoy Carsi",
        "LATITUDE": "40.99046",
        "LONGITUDE": "29.0234",
        "STORE_ADDRESS": "Caferaga Mah Muvakkithane Sok No 9 Istanbul 34 TR 34710",
        "STORE_OPEN_AT": 7,
        "STORE_CLOSE_AT": 24,
        "STORE_TYPE": "Starbucks"
    },
    {
        "STORE_NAME": "Akaretler",
        "LATITUDE": "41.04254",
        "LONGITUDE": "29.00258",
        "STORE_ADDRESS": "Sair Nedim Cad. No 5 Besiktas Istanbul Istanbul 34 TR 0",
        "STORE_OPEN_AT": 7,
        "STORE_CLOSE_AT": 24,
        "STORE_TYPE": "Starbucks"
    },
    {
        "STORE_NAME": "Barbaros Bulvari Besiktas",
        "LATITUDE": "41.04403",
        "LONGITUDE": "29.00704",
        "STORE_ADDRESS": "Barbaros Bulv Yildiz ls Hani Istanbul 34 TR 34200",
        "STORE_OPEN_AT": 7,
        "STORE_CLOSE_AT": 24,
        "STORE_TYPE": "Starbucks"
    },
    {
        "STORE_NAME": "Bahariye Cad No:28",
        "LATITUDE": "40.98936",
        "LONGITUDE": "29.02871",
        "STORE_ADDRESS": "General Asim Gunduz Cad. Istanbul 34 TR 34714",
        "STORE_OPEN_AT": 7,
        "STORE_CLOSE_AT": 24,
        "STORE_TYPE": "Starbucks"
    },
    {
        "STORE_NAME": "Lotus Pangalti",
        "LATITUDE": "41.05158",
        "LONGITUDE": "28.98771",
        "STORE_ADDRESS": "Halaskargazi Cd No 38 66 34371 Sisli Istanbul Istanbul 34 TR 34371",
        "STORE_OPEN_AT": 7,
        "STORE_CLOSE_AT": 24,
        "STORE_TYPE": "Starbucks"
    },
    {
        "STORE_NAME": "Moda Reserve",
        "LATITUDE": "40.98064",
        "LONGITUDE": "29.02364",
        "STORE_ADDRESS": "Moda Cad. Aylin Apt. No: 188/C Kadikoy Istanbul - Asya 34 TR 34710",
        "STORE_OPEN_AT": 7,
        "STORE_CLOSE_AT": 24,
        "STORE_TYPE": "Starbucks"
    },
    {
        "STORE_NAME": "Kosuyolu Reserve",
        "LATITUDE": "41.00602",
        "LONGITUDE": "29.03679",
        "STORE_ADDRESS": "Muhittin Ustundag Cd Istanbul 34 TR 34718",
        "STORE_OPEN_AT": 7,
        "STORE_CLOSE_AT": 24,
        "STORE_TYPE": "Starbucks"
    },
    {
        "STORE_NAME": "Nisantasi Reserve",
        "LATITUDE": "41.05138",
        "LONGITUDE": "28.99111",
        "STORE_ADDRESS": "Nisantasi Mah Vali Konagi Cad No 30 Istanbul 34 TR 34398",
        "STORE_OPEN_AT": 7,
        "STORE_CLOSE_AT": 24,
        "STORE_TYPE": "Starbucks"
    },
    {
        "STORE_NAME": "Elysium Elit Kosuyolu",
        "LATITUDE": "41.0061",
        "LONGITUDE": "29.03721",
        "STORE_ADDRESS": "Muhittin Ustundag Cad. Istanbul Istanbul 34 TR 34718",
        "STORE_OPEN_AT": 7,
        "STORE_CLOSE_AT": 24,
        "STORE_TYPE": "Starbucks"
    },
    {
        "STORE_NAME": "Akkavak Sokak",
        "LATITUDE": "41.05144",
        "LONGITUDE": "28.99341",
        "STORE_ADDRESS": "Akkavak Sokak Tesvikiye Sisli Istanbul 34 TR 34365",
        "STORE_OPEN_AT": 7,
        "STORE_CLOSE_AT": 24,
        "STORE_TYPE": "Starbucks"
    },
    {
        "STORE_NAME": "Kosuyolu Isiklar",
        "LATITUDE": "41.01173",
        "LONGITUDE": "29.03877",
        "STORE_ADDRESS": "Kosuyolu Cad. Direkli Carsi Sok. No:1 Kosuyolu, Kadikoy Istanbul 34 TR 34662",
        "STORE_OPEN_AT": 7,
        "STORE_CLOSE_AT": 24,
        "STORE_TYPE": "Starbucks"
    },
    {
        "STORE_NAME": "Acibadem Cad No:98",
        "LATITUDE": "40.99949",
        "LONGITUDE": "29.039",
        "STORE_ADDRESS": "Acibadem Mah. Acibadem Cad. NO 98 Uskudar Istanbul 34 TR 0000",
        "STORE_OPEN_AT": 7,
        "STORE_CLOSE_AT": 24,
        "STORE_TYPE": "Starbucks"
    },
    {
        "STORE_NAME": "Bomonti Bomonti Apartmani",
        "LATITUDE": "41.05678",
        "LONGITUDE": "28.98124",
        "STORE_ADDRESS": "Gokkusagi Sokak Istanbul 34 TR 34380",
        "STORE_OPEN_AT": 7,
        "STORE_CLOSE_AT": 24,
        "STORE_TYPE": "Starbucks"
    },
    {
        "STORE_NAME": "Istanbul Fulya 10",
        "LATITUDE": "41.05801",
        "LONGITUDE": "29.00319",
        "STORE_ADDRESS": "Dikilitas Ayazmaderesi Cd No 10 Besiktas Istanbul Istanbul 34 TR 34349",
        "STORE_OPEN_AT": 7,
        "STORE_CLOSE_AT": 24,
        "STORE_TYPE": "Starbucks"
    },
    {
        "STORE_NAME": "Ortakoy Sahil",
        "LATITUDE": "41.04799",
        "LONGITUDE": "29.02646",
        "STORE_ADDRESS": "Mecidiye Mah Degirmen Sok No 16 Istanbul 34 TR 34400",
        "STORE_OPEN_AT": 7,
        "STORE_CLOSE_AT": 24,
        "STORE_TYPE": "Starbucks"
    },
    {
        "STORE_NAME": "Acibadem Cad No:190",
        "LATITUDE": "41.0103",
        "LONGITUDE": "29.05179",
        "STORE_ADDRESS": "Acibadem Mah. Acibadem Cad. NO 190 Uskudar Istanbul 34 TR 00000",
        "STORE_OPEN_AT": 7,
        "STORE_CLOSE_AT": 24,
        "STORE_TYPE": "Starbucks"
    },
    {
        "STORE_NAME": "Cevahir Meydan Dis",
        "LATITUDE": "41.06262",
        "LONGITUDE": "28.99293",
        "STORE_ADDRESS": "Buyukdere Cad Istanbul Cevahir Alisveri Istanbul 34 TR 34381",
        "STORE_OPEN_AT": 7,
        "STORE_CLOSE_AT": 24,
        "STORE_TYPE": "Starbucks"
    },
    {
        "STORE_NAME": "Sisli Carrefour Ortaklar Caddesi",
        "LATITUDE": "41.0642",
        "LONGITUDE": "28.99694",
        "STORE_ADDRESS": "Ortaklar caddesi no 17 sisli ISTANBUL 34 TR 34394",
        "STORE_OPEN_AT": 7,
        "STORE_CLOSE_AT": 24,
        "STORE_TYPE": "Starbucks"
    },
    {
        "STORE_NAME": "Akasya Kuzey 2",
        "LATITUDE": "41.00265",
        "LONGITUDE": "29.05463",
        "STORE_ADDRESS": "Cecen Sokak Acıbadem Mah. Uskudar Istanbul 34 TR 34660",
        "STORE_OPEN_AT": 7,
        "STORE_CLOSE_AT": 24,
        "STORE_TYPE": "Starbucks"
    },
    {
        "STORE_NAME": "Fikirtepe Yenitepe",
        "LATITUDE": "40.99473",
        "LONGITUDE": "29.05678",
        "STORE_ADDRESS": "Dumlupinar Ucar Sk 34720 Kadikoy Istanbul Istanbul 34 TR 34720",
        "STORE_OPEN_AT": 7,
        "STORE_CLOSE_AT": 24,
        "STORE_TYPE": "Starbucks"
    },
    {
        "STORE_NAME": "Goztepe",
        "LATITUDE": "40.98457",
        "LONGITUDE": "29.0531",
        "STORE_ADDRESS": "Gazi Muhtar Pasa Sok Istanbul 34 TR 34724",
        "STORE_OPEN_AT": 7,
        "STORE_CLOSE_AT": 24,
        "STORE_TYPE": "Starbucks"
    },
    {
        "STORE_NAME": "Akasya Kuzey 2",
        "LATITUDE": "41.00265",
        "LONGITUDE": "29.05463",
        "STORE_ADDRESS": "Cecen Sokak Acıbadem Mah. Uskudar Istanbul 34 TR 34660",
        "STORE_OPEN_AT": 7,
        "STORE_CLOSE_AT": 24,
        "STORE_TYPE": "Starbucks"
    },
    {
        "STORE_NAME": "Goztepe Loft",
        "LATITUDE": "40.97928",
        "LONGITUDE": "29.06722",
        "STORE_ADDRESS": "Goztepe Mah Tutuncu Mehmet Efendi Cad 84 Istanbul 34 TR 34730",
        "STORE_OPEN_AT": 7,
        "STORE_CLOSE_AT": 24,
        "STORE_TYPE": "Starbucks"
    },
    {
        "STORE_NAME": "Acibadem Cad No:98",
        "LATITUDE": "40.99949",
        "LONGITUDE": "29.039",
        "STORE_ADDRESS": "Acibadem Mah. Acibadem Cad. NO 98 Uskudar Istanbul 34 TR 0000",
        "STORE_OPEN_AT": 7,
        "STORE_CLOSE_AT": 24,
        "STORE_TYPE": "Starbucks"
    },
    {
        "STORE_NAME": "Acibadem Cad No:190",
        "LATITUDE": "41.0103",
        "LONGITUDE": "29.05179",
        "STORE_ADDRESS": "Acibadem Mah. Acibadem Cad. NO 190 Uskudar Istanbul 34 TR 00000",
        "STORE_OPEN_AT": 7,
        "STORE_CLOSE_AT": 24,
        "STORE_TYPE": "Starbucks"
    },
    {
        "STORE_NAME": "Ciftehavuzlar",
        "LATITUDE": "40.973",
        "LONGITUDE": "29.05698",
        "STORE_ADDRESS": "Goztepe Mah Bagdat Cad Alemdar Istanbul 34 TR 34730",
        "STORE_OPEN_AT": 7,
        "STORE_CLOSE_AT": 24,
        "STORE_TYPE": "Starbucks"
    },
    {
        "STORE_NAME": "Dalyan",
        "LATITUDE": "40.97387",
        "LONGITUDE": "29.04844",
        "STORE_ADDRESS": "Haci Mehmet Efendi Cad. No:23 D:1-2 Selamicesme, Kadikoy Istanbul 34 TR 34730",
        "STORE_OPEN_AT": 7,
        "STORE_CLOSE_AT": 24,
        "STORE_TYPE": "Starbucks"
    },
    {
        "STORE_NAME": "Elysium Elit Kosuyolu",
        "LATITUDE": "41.0061",
        "LONGITUDE": "29.03721",
        "STORE_ADDRESS": "Muhittin Ustundag Cad. Istanbul Istanbul 34 TR 34718",
        "STORE_OPEN_AT": 7,
        "STORE_CLOSE_AT": 24,
        "STORE_TYPE": "Starbucks"
    },
    {
        "STORE_NAME": "Kosuyolu Reserve",
        "LATITUDE": "41.00602",
        "LONGITUDE": "29.03679",
        "STORE_ADDRESS": "Muhittin Ustundag Cd Istanbul 34 TR 34718",
        "STORE_OPEN_AT": 7,
        "STORE_CLOSE_AT": 24,
        "STORE_TYPE": "Starbucks"
    },
    {
        "STORE_NAME": "Bahariye Cad No:28",
        "LATITUDE": "40.98936",
        "LONGITUDE": "29.02871",
        "STORE_ADDRESS": "General Asim Gunduz Cad. Istanbul 34 TR 34714",
        "STORE_OPEN_AT": 7,
        "STORE_CLOSE_AT": 24,
        "STORE_TYPE": "Starbucks"
    },
    {
        "STORE_NAME": "Kosuyolu Isiklar",
        "LATITUDE": "41.01173",
        "LONGITUDE": "29.03877",
        "STORE_ADDRESS": "Kosuyolu Cad. Direkli Carsi Sok. No:1 Kosuyolu, Kadikoy Istanbul 34 TR 34662",
        "STORE_OPEN_AT": 7,
        "STORE_CLOSE_AT": 24,
        "STORE_TYPE": "Starbucks"
    },
    {
        "STORE_NAME": "Kazasker",
        "LATITUDE": "40.97104",
        "LONGITUDE": "29.08386",
        "STORE_ADDRESS": "Semsettin Gunaltay Cad Cadirlikosk Apt Istanbul 34 TR 34714",
        "STORE_OPEN_AT": 7,
        "STORE_CLOSE_AT": 24,
        "STORE_TYPE": "Starbucks"
    },
    {
        "STORE_NAME": "Kadikoy Carsi",
        "LATITUDE": "40.99046",
        "LONGITUDE": "29.0234",
        "STORE_ADDRESS": "Caferaga Mah Muvakkithane Sok No 9 Istanbul 34 TR 34710",
        "STORE_OPEN_AT": 7,
        "STORE_CLOSE_AT": 24,
        "STORE_TYPE": "Starbucks"
    },
    {
        "STORE_NAME": "Watergarden",
        "LATITUDE": "40.9979",
        "LONGITUDE": "29.09775",
        "STORE_ADDRESS": "Barbaros mah. Uzman Sok.12-1 Atasehir Istanbul 34 TR 00000",
        "STORE_OPEN_AT": 7,
        "STORE_CLOSE_AT": 24,
        "STORE_TYPE": "Starbucks"
    },
    {
        "STORE_NAME": "Caddebostan Iskele Sokak",
        "LATITUDE": "40.96401",
        "LONGITUDE": "29.06545",
        "STORE_ADDRESS": "Erenk y Mahallesi Iskele Sokak Istanbul - Kadikoy 34 TR 34278",
        "STORE_OPEN_AT": 7,
        "STORE_CLOSE_AT": 24,
        "STORE_TYPE": "Starbucks"
    },
    {
        "STORE_NAME": "Saskinbakkal",
        "LATITUDE": "40.96511",
        "LONGITUDE": "29.0768",
        "STORE_ADDRESS": "Bagdat Cd. Noter Sk. 18/1 Kadikoy Istanbul 34 TR 34740",
        "STORE_OPEN_AT": 7,
        "STORE_CLOSE_AT": 24,
        "STORE_TYPE": "Starbucks"
    },
    {
        "STORE_NAME": "Palladium Reserve",
        "LATITUDE": "40.9865",
        "LONGITUDE": "29.10006",
        "STORE_ADDRESS": "Barbaros mah. Halk caddesi 8 /B Atasehir Kadikoy Istanbul 34 TR 00000",
        "STORE_OPEN_AT": 7,
        "STORE_CLOSE_AT": 24,
        "STORE_TYPE": "Starbucks"
    },
    {
        "STORE_NAME": "Moda Reserve",
        "LATITUDE": "40.98064",
        "LONGITUDE": "29.02364",
        "STORE_ADDRESS": "Moda Cad. Aylin Apt. No: 188/C Kadikoy Istanbul - Asya 34 TR 34710",
        "STORE_OPEN_AT": 7,
        "STORE_CLOSE_AT": 24,
        "STORE_TYPE": "Starbucks"
    },
    {
        "STORE_NAME": "Kozyatagi City's",
        "LATITUDE": "40.97972",
        "LONGITUDE": "29.10017",
        "STORE_ADDRESS": "Icerenkoy Mah Cayir Cad 1 Istanbul 34 TR 34752",
        "STORE_OPEN_AT": 7,
        "STORE_CLOSE_AT": 24,
        "STORE_TYPE": "Starbucks"
    },
    {
        "STORE_NAME": "My Newwork",
        "LATITUDE": "40.99178",
        "LONGITUDE": "29.10446",
        "STORE_ADDRESS": "Ihlamur Sokak Atasehir Istanbul 34 TR 34746",
        "STORE_OPEN_AT": 7,
        "STORE_CLOSE_AT": 24,
        "STORE_TYPE": "Starbucks"
    },
    {
        "STORE_NAME": "Nida Kule Kozyatagi",
        "LATITUDE": "40.97396",
        "LONGITUDE": "29.09818",
        "STORE_ADDRESS": "Kozyatagi Mah. Degirmen Sok. Nida Kule No:18 K:Bodrum D:1 Istanbul 34 TR 34742",
        "STORE_OPEN_AT": 7,
        "STORE_CLOSE_AT": 24,
        "STORE_TYPE": "Starbucks"
    },
    {
        "STORE_NAME": "Aysekadin",
        "LATITUDE": "40.96549",
        "LONGITUDE": "29.08777",
        "STORE_ADDRESS": "Semsettin Gunaltay Cad. NO.108 Kozyatagi Kadikoy Istanbul 34 TR 34742",
        "STORE_OPEN_AT": 7,
        "STORE_CLOSE_AT": 24,
        "STORE_TYPE": "Starbucks"
    },
    {
        "STORE_NAME": "Capitol Sinema Kati",
        "LATITUDE": "41.01565",
        "LONGITUDE": "29.09367",
        "STORE_ADDRESS": "Mahir lz Caddesi No 4 Altunizade/Uskudar/Istanbul Istanbul 34 TR 34662",
        "STORE_OPEN_AT": 7,
        "STORE_CLOSE_AT": 24,
        "STORE_TYPE": "Starbucks"
    },
    {
        "STORE_NAME": "Suadiye No:471",
        "LATITUDE": "40.96106",
        "LONGITUDE": "29.07919",
        "STORE_ADDRESS": "Bagdat Cad. No 471/3 Suadiye Kadikoy Istanbul Istanbul 34 TR 00000",
        "STORE_OPEN_AT": 7,
        "STORE_CLOSE_AT": 24,
        "STORE_TYPE": "Starbucks"
    },
    {
        "STORE_NAME": "Bulvar 216 Teras",
        "LATITUDE": "40.99439",
        "LONGITUDE": "29.11051",
        "STORE_ADDRESS": "Atasehir Bulvari NO. 1 Atasehir Atasehir 34 TR 34746",
        "STORE_OPEN_AT": 7,
        "STORE_CLOSE_AT": 24,
        "STORE_TYPE": "Starbucks"
    },
    {
        "STORE_NAME": "Suadiye Sahil",
        "LATITUDE": "40.95696",
        "LONGITUDE": "29.08054",
        "STORE_ADDRESS": "Suadiye Park Plaj Yolu No 18 A Blok Beyoglu 34 TR 34740",
        "STORE_OPEN_AT": 7,
        "STORE_CLOSE_AT": 24,
        "STORE_TYPE": "Starbucks"
    },
    {
        "STORE_NAME": "Kadikoy Bostanci Minibus Yolu",
        "LATITUDE": "40.95978",
        "LONGITUDE": "29.09485",
        "STORE_ADDRESS": "Semsettin Gunaltay Caddesi No 20 Istanbul 34 TR 34744",
        "STORE_OPEN_AT": 7,
        "STORE_CLOSE_AT": 24,
        "STORE_TYPE": "Starbucks"
    },
    {
        "STORE_NAME": "Novada Atasehir",
        "LATITUDE": "40.9861",
        "LONGITUDE": "29.11861",
        "STORE_ADDRESS": "Kucukbakkalkoy Mah. Sehit Sakir Elkovan Cad. Novada Atasehir No:20 K:1 D:25 Istanbul 34 TR 34700",
        "STORE_OPEN_AT": 7,
        "STORE_CLOSE_AT": 24,
        "STORE_TYPE": "Starbucks"
    },
    {
        "STORE_NAME": "Uskudar Mimar Sinan Carsisi",
        "LATITUDE": "41.02377",
        "LONGITUDE": "29.01731",
        "STORE_ADDRESS": "Mimar Sinan Atlas Ck NO2 Uskudar Istanbul Uskudar, Istanbul 34 TR 34672",
        "STORE_OPEN_AT": 7,
        "STORE_CLOSE_AT": 24,
        "STORE_TYPE": "Starbucks"
    },
    {
        "STORE_NAME": "Hilltown Kucukyali Meydan",
        "LATITUDE": "40.9942",
        "LONGITUDE": "29.12329",
        "STORE_ADDRESS": "Siteler Yolu No1 Aydnevler Mahallesi, Maltepe Istanbul 34 TR 34765",
        "STORE_OPEN_AT": 7,
        "STORE_CLOSE_AT": 24,
        "STORE_TYPE": "Starbucks"
    },
    {
        "STORE_NAME": "Istanbul DTM",
        "LATITUDE": "40.98597",
        "LONGITUDE": "28.83137",
        "STORE_ADDRESS": "Yesilkoy Mah Ataturk Cad Istanbul Dunya Istanbul 34 TR 34149",
        "STORE_OPEN_AT": 7,
        "STORE_CLOSE_AT": 24,
        "STORE_TYPE": "Starbucks"
    },
    {
        "STORE_NAME": "G Plus",
        "LATITUDE": "41.02535",
        "LONGITUDE": "28.81567",
        "STORE_ADDRESS": "Yalcin Kores Caddesi Cavdar Sokak No:1 Bagcilar Istanbul 34 TR 34212",
        "STORE_OPEN_AT": 7,
        "STORE_CLOSE_AT": 24,
        "STORE_TYPE": "Starbucks"
    },
    {
        "STORE_NAME": "Halkali Atakent",
        "LATITUDE": "41.02099",
        "LONGITUDE": "28.79166",
        "STORE_ADDRESS": "Halkali Caddesi Istanbul 34 TR 34260",
        "STORE_OPEN_AT": 7,
        "STORE_CLOSE_AT": 24,
        "STORE_TYPE": "Starbucks"
    },
    {
        "STORE_NAME": "Yesilkoy Cadde",
        "LATITUDE": "40.95853",
        "LONGITUDE": "28.82181",
        "STORE_ADDRESS": "Istasyon Cad. Yesilkoy Bakirkoy Istanbul 34 TR 0000",
        "STORE_OPEN_AT": 7,
        "STORE_CLOSE_AT": 24,
        "STORE_TYPE": "Starbucks"
    },
    {
        "STORE_NAME": "LCW Gunesli HO",
        "LATITUDE": "41.04027",
        "LONGITUDE": "28.8138",
        "STORE_ADDRESS": "Gulbahar Cad No96 Evren Mah. Bagcilar Istanbul 34 TR 34212",
        "STORE_OPEN_AT": 7,
        "STORE_CLOSE_AT": 24,
        "STORE_TYPE": "Starbucks"
    },
    {
        "STORE_NAME": "Oasis Gunesli",
        "LATITUDE": "41.04031",
        "LONGITUDE": "28.81127",
        "STORE_ADDRESS": "Evren Mah. Bahar Cd. 43-J, Gunesli Bagcilar Istanbul 34 TR 34200",
        "STORE_OPEN_AT": 7,
        "STORE_CLOSE_AT": 24,
        "STORE_TYPE": "Starbucks"
    },
    {
        "STORE_NAME": "Balance Gunesli",
        "LATITUDE": "41.05256",
        "LONGITUDE": "28.81088",
        "STORE_ADDRESS": "Mahmutbey Mah.Tasocagi Yolu No19 Gunesli Bagcilar Istanbul 34 TR 34218",
        "STORE_OPEN_AT": 7,
        "STORE_CLOSE_AT": 24,
        "STORE_TYPE": "Starbucks"
    },
    {
        "STORE_NAME": "Mahmutbey",
        "LATITUDE": "41.0578",
        "LONGITUDE": "28.81946",
        "STORE_ADDRESS": "Peyami Sefa Caddesi Mahmutbey Mahallesi Istanbul 34 TR 34218",
        "STORE_OPEN_AT": 7,
        "STORE_CLOSE_AT": 24,
        "STORE_TYPE": "Starbucks"
    },
    {
        "STORE_NAME": "Batisehir",
        "LATITUDE": "41.0633",
        "LONGITUDE": "28.84099",
        "STORE_ADDRESS": "Batisehir Cad. G3 blok D1 Bagcilar Istanbul 34 TR 0000",
        "STORE_OPEN_AT": 7,
        "STORE_CLOSE_AT": 24,
        "STORE_TYPE": "Starbucks"
    },
    {
        "STORE_NAME": "Tema Istanbul",
        "LATITUDE": "41.05151",
        "LONGITUDE": "28.76209",
        "STORE_ADDRESS": "221 Sokak Istanbul 34 TR 34307",
        "STORE_OPEN_AT": 7,
        "STORE_CLOSE_AT": 24,
        "STORE_TYPE": "Starbucks"
    },
    {
        "STORE_NAME": "Yedi Mavi C Blok",
        "LATITUDE": "40.98076",
        "LONGITUDE": "28.90357",
        "STORE_ADDRESS": "Kazlicesme Mahallesi Kennedy Caddesi 62 1 C Blok Istanbul 34 TR 34020",
        "STORE_OPEN_AT": 7,
        "STORE_CLOSE_AT": 24,
        "STORE_TYPE": "Starbucks"
    },
    {
        "STORE_NAME": "Buyukyali Konutlari",
        "LATITUDE": "40.98278",
        "LONGITUDE": "28.90567",
        "STORE_ADDRESS": "Kennedy Caddesi Istanbul 34 TR 34020",
        "STORE_OPEN_AT": 7,
        "STORE_CLOSE_AT": 24,
        "STORE_TYPE": "Starbucks"
    },
    {
        "STORE_NAME": "Deposite",
        "LATITUDE": "41.07096",
        "LONGITUDE": "28.80804",
        "STORE_ADDRESS": "Giyim Koop. Sanayi Sitesi Ziya Gokalp Mahallesi Istanbul 34 TR 34490",
        "STORE_OPEN_AT": 7,
        "STORE_CLOSE_AT": 24,
        "STORE_TYPE": "Starbucks"
    },
    {
        "STORE_NAME": "Forum Istanbul Akvaryum",
        "LATITUDE": "41.04661",
        "LONGITUDE": "28.89766",
        "STORE_ADDRESS": "Kocatepe Mah Sehir Parki Cad 12 Sok Istanbul - Avrupa 34 TR 34045",
        "STORE_OPEN_AT": 7,
        "STORE_CLOSE_AT": 24,
        "STORE_TYPE": "Starbucks"
    },
    {
        "STORE_NAME": "Forum Istanbul Metro Girisi",
        "LATITUDE": "41.04784",
        "LONGITUDE": "28.89641",
        "STORE_ADDRESS": "Pasa Caddesi No3 Kocatepe Mahallesi, Bayrampasa Istanbul 34 TR 34045",
        "STORE_OPEN_AT": 7,
        "STORE_CLOSE_AT": 24,
        "STORE_TYPE": "Starbucks"
    },
    {
        "STORE_NAME": "Basaksehir 4.Etap Shell",
        "LATITUDE": "41.08452",
        "LONGITUDE": "28.81083",
        "STORE_ADDRESS": "Basak Arnavutkoy Resat Nuri Guntekin Sk 3 A 34480 Basaksehir Istanbul Istanbul 34 TR 34480",
        "STORE_OPEN_AT": 7,
        "STORE_CLOSE_AT": 24,
        "STORE_TYPE": "Starbucks"
    },
    {
        "STORE_NAME": "Pashador Bayrampasa",
        "LATITUDE": "41.05289",
        "LONGITUDE": "28.91026",
        "STORE_ADDRESS": "Eski Edirne Asfalti Istanbul 34 TR 34055",
        "STORE_OPEN_AT": 7,
        "STORE_CLOSE_AT": 24,
        "STORE_TYPE": "Starbucks"
    },
    {
        "STORE_NAME": "Vatan Caddesi",
        "LATITUDE": "41.01706",
        "LONGITUDE": "28.94105",
        "STORE_ADDRESS": "Aksemsettin Mah Adnan Menderes Vatan Bulvari No 46 Istanbul 34 TR 34080",
        "STORE_OPEN_AT": 7,
        "STORE_CLOSE_AT": 24,
        "STORE_TYPE": "Starbucks"
    },
    {
        "STORE_NAME": "Ritim Istanbul",
        "LATITUDE": "40.92089",
        "LONGITUDE": "29.15744",
        "STORE_ADDRESS": "Fatma Cavus Sokak Cevizli Maltepe Istanbul 34 TR 0000",
        "STORE_OPEN_AT": 7,
        "STORE_CLOSE_AT": 24,
        "STORE_TYPE": "Starbucks"
    },
    {
        "STORE_NAME": "Anatolium Marmara",
        "LATITUDE": "40.91847",
        "LONGITUDE": "29.17588",
        "STORE_ADDRESS": "Soganlk D-100 Kuzey Yanyol Cad. kartal Istanbul 34 TR 34865",
        "STORE_OPEN_AT": 7,
        "STORE_CLOSE_AT": 24,
        "STORE_TYPE": "Starbucks"
    },
    {
        "STORE_NAME": "Maltepe Nish Adalar",
        "LATITUDE": "40.9445",
        "LONGITUDE": "29.15922",
        "STORE_ADDRESS": "Zumrutevler Mah Mevlana Halid Cad Nish Adalar Sitesi A44 Blok Istanbul 34 TR 34852",
        "STORE_OPEN_AT": 7,
        "STORE_CLOSE_AT": 24,
        "STORE_TYPE": "Starbucks"
    },
    {
        "STORE_NAME": "Maltepe Mesa Cadde",
        "LATITUDE": "40.93163",
        "LONGITUDE": "29.12734",
        "STORE_ADDRESS": "Bagdat Caddesi Istanbul 34 TR 34843",
        "STORE_OPEN_AT": 7,
        "STORE_CLOSE_AT": 24,
        "STORE_TYPE": "Starbucks"
    },
    {
        "STORE_NAME": "Kartal Sahil",
        "LATITUDE": "40.8941",
        "LONGITUDE": "29.17258",
        "STORE_ADDRESS": "Kordonboyu Mah Cilek Sok 1 B16 Istanbul 34 TR 34860",
        "STORE_OPEN_AT": 7,
        "STORE_CLOSE_AT": 24,
        "STORE_TYPE": "Starbucks"
    },
    {
        "STORE_NAME": "Idealtepe",
        "LATITUDE": "40.94111",
        "LONGITUDE": "29.11609",
        "STORE_ADDRESS": "Bagdat Caddesi 215 B Istanbul 34 TR 34841",
        "STORE_OPEN_AT": 7,
        "STORE_CLOSE_AT": 24,
        "STORE_TYPE": "Starbucks"
    },
    {
        "STORE_NAME": "Hilltown Kucukyali Reserve",
        "LATITUDE": "40.95271",
        "LONGITUDE": "29.12168",
        "STORE_ADDRESS": "Camlica Sitesi Yolu Sok. Kucukyali Istanbul 34 TR 34765",
        "STORE_OPEN_AT": 7,
        "STORE_CLOSE_AT": 24,
        "STORE_TYPE": "Starbucks"
    },
    {
        "STORE_NAME": "Ugur Mumcu",
        "LATITUDE": "40.9313",
        "LONGITUDE": "29.21399",
        "STORE_ADDRESS": "Seyh Samil Cad. Kartal Istanbul 34 TR 34882",
        "STORE_OPEN_AT": 7,
        "STORE_CLOSE_AT": 24,
        "STORE_TYPE": "Starbucks"
    },
    {
        "STORE_NAME": "Bostanci",
        "LATITUDE": "40.95292",
        "LONGITUDE": "29.095",
        "STORE_ADDRESS": "Iskele Cad No 4 D 4 Istanbul 34 TR 34710",
        "STORE_OPEN_AT": 7,
        "STORE_CLOSE_AT": 24,
        "STORE_TYPE": "Starbucks"
    },
    {
        "STORE_NAME": "Kadikoy Bostanci Minibus Yolu",
        "LATITUDE": "40.95978",
        "LONGITUDE": "29.09485",
        "STORE_ADDRESS": "Semsettin Gunaltay Caddesi No 20 Istanbul 34 TR 34744",
        "STORE_OPEN_AT": 7,
        "STORE_CLOSE_AT": 24,
        "STORE_TYPE": "Starbucks"
    },
    {
        "STORE_NAME": "Suadiye Sahil",
        "LATITUDE": "40.95696",
        "LONGITUDE": "29.08054",
        "STORE_ADDRESS": "Suadiye Park Plaj Yolu No 18 A Blok Beyoglu 34 TR 34740",
        "STORE_OPEN_AT": 7,
        "STORE_CLOSE_AT": 24,
        "STORE_TYPE": "Starbucks"
    },
    {
        "STORE_NAME": "Aysekadin",
        "LATITUDE": "40.96549",
        "LONGITUDE": "29.08777",
        "STORE_ADDRESS": "Semsettin Gunaltay Cad. NO.108 Kozyatagi Kadikoy Istanbul 34 TR 34742",
        "STORE_OPEN_AT": 7,
        "STORE_CLOSE_AT": 24,
        "STORE_TYPE": "Starbucks"
    },
    {
        "STORE_NAME": "Nida Kule Kozyatagi",
        "LATITUDE": "40.97396",
        "LONGITUDE": "29.09818",
        "STORE_ADDRESS": "Kozyatagi Mah. Degirmen Sok. Nida Kule No:18 K:Bodrum D:1 Istanbul 34 TR 34742",
        "STORE_OPEN_AT": 7,
        "STORE_CLOSE_AT": 24,
        "STORE_TYPE": "Starbucks"
    },
    {
        "STORE_NAME": "Trendist Atasehir",
        "LATITUDE": "40.99015",
        "LONGITUDE": "29.13988",
        "STORE_ADDRESS": "Ataturk Mah. Gulibrisim Cad. Atasehir Kadikoy Istanbul 34 TR 00000",
        "STORE_OPEN_AT": 7,
        "STORE_CLOSE_AT": 24,
        "STORE_TYPE": "Starbucks"
    },
    {
        "STORE_NAME": "Novada Atasehir",
        "LATITUDE": "40.9861",
        "LONGITUDE": "29.11861",
        "STORE_ADDRESS": "Kucukbakkalkoy Mah. Sehit Sakir Elkovan Cad. Novada Atasehir No:20 K:1 D:25 Istanbul 34 TR 34700",
        "STORE_OPEN_AT": 7,
        "STORE_CLOSE_AT": 24,
        "STORE_TYPE": "Starbucks"
    },
    {
        "STORE_NAME": "Suadiye No:471",
        "LATITUDE": "40.96106",
        "LONGITUDE": "29.07919",
        "STORE_ADDRESS": "Bagdat Cad. No 471/3 Suadiye Kadikoy Istanbul Istanbul 34 TR 00000",
        "STORE_OPEN_AT": 7,
        "STORE_CLOSE_AT": 24,
        "STORE_TYPE": "Starbucks"
    },
    {
        "STORE_NAME": "Nar Point Atasehir",
        "LATITUDE": "40.9912",
        "LONGITUDE": "29.13627",
        "STORE_ADDRESS": "Ataturk Mah. Atasehir Bulv. 3 Cad. No:7 Istanbul 34 TR 34750",
        "STORE_OPEN_AT": 7,
        "STORE_CLOSE_AT": 24,
        "STORE_TYPE": "Starbucks"
    },
    {
        "STORE_NAME": "Kozyatagi City's",
        "LATITUDE": "40.97972",
        "LONGITUDE": "29.10017",
        "STORE_ADDRESS": "Icerenkoy Mah Cayir Cad 1 Istanbul 34 TR 34752",
        "STORE_OPEN_AT": 7,
        "STORE_CLOSE_AT": 24,
        "STORE_TYPE": "Starbucks"
    },
    {
        "STORE_NAME": "Kazasker",
        "LATITUDE": "40.97104",
        "LONGITUDE": "29.08386",
        "STORE_ADDRESS": "Semsettin Gunaltay Cad Cadirlikosk Apt Istanbul 34 TR 34714",
        "STORE_OPEN_AT": 7,
        "STORE_CLOSE_AT": 24,
        "STORE_TYPE": "Starbucks"
    },
    {
        "STORE_NAME": "Saskinbakkal",
        "LATITUDE": "40.96511",
        "LONGITUDE": "29.0768",
        "STORE_ADDRESS": "Bagdat Cd. Noter Sk. 18/1 Kadikoy Istanbul 34 TR 34740",
        "STORE_OPEN_AT": 7,
        "STORE_CLOSE_AT": 24,
        "STORE_TYPE": "Starbucks"
    },
    {
        "STORE_NAME": "Atasehir Ata Bloklari",
        "LATITUDE": "40.9929",
        "LONGITUDE": "29.12521",
        "STORE_ADDRESS": "41 Ada Atasehir Bulv Ata Carsi 4 1 Istanbul 34 TR 34398",
        "STORE_OPEN_AT": 7,
        "STORE_CLOSE_AT": 24,
        "STORE_TYPE": "Starbucks"
    },
    {
        "STORE_NAME": "Serifali",
        "LATITUDE": "40.99729",
        "LONGITUDE": "29.13999",
        "STORE_ADDRESS": "Serifali Mah. Husrev Sok. Umraniye Istanbul 34 TR 34775",
        "STORE_OPEN_AT": 7,
        "STORE_CLOSE_AT": 24,
        "STORE_TYPE": "Starbucks"
    },
    {
        "STORE_NAME": "Hilltown Kucukyali Meydan",
        "LATITUDE": "40.9942",
        "LONGITUDE": "29.12329",
        "STORE_ADDRESS": "Siteler Yolu No1 Aydnevler Mahallesi, Maltepe Istanbul 34 TR 34765",
        "STORE_OPEN_AT": 7,
        "STORE_CLOSE_AT": 24,
        "STORE_TYPE": "Starbucks"
    },
    {
        "STORE_NAME": "Palladium Reserve",
        "LATITUDE": "40.9865",
        "LONGITUDE": "29.10006",
        "STORE_ADDRESS": "Barbaros mah. Halk caddesi 8 /B Atasehir Kadikoy Istanbul 34 TR 00000",
        "STORE_OPEN_AT": 7,
        "STORE_CLOSE_AT": 24,
        "STORE_TYPE": "Starbucks"
    },
    {
        "STORE_NAME": "My Newwork",
        "LATITUDE": "40.99178",
        "LONGITUDE": "29.10446",
        "STORE_ADDRESS": "Ihlamur Sokak Atasehir Istanbul 34 TR 34746",
        "STORE_OPEN_AT": 7,
        "STORE_CLOSE_AT": 24,
        "STORE_TYPE": "Starbucks"
    },
    {
        "STORE_NAME": "Bulvar 216 Teras",
        "LATITUDE": "40.99439",
        "LONGITUDE": "29.11051",
        "STORE_ADDRESS": "Atasehir Bulvari NO. 1 Atasehir Atasehir 34 TR 34746",
        "STORE_OPEN_AT": 7,
        "STORE_CLOSE_AT": 24,
        "STORE_TYPE": "Starbucks"
    },
    {
        "STORE_NAME": "Caddebostan Iskele Sokak",
        "LATITUDE": "40.96401",
        "LONGITUDE": "29.06545",
        "STORE_ADDRESS": "Erenk y Mahallesi Iskele Sokak Istanbul - Kadikoy 34 TR 34278",
        "STORE_OPEN_AT": 7,
        "STORE_CLOSE_AT": 24,
        "STORE_TYPE": "Starbucks"
    },
    {
        "STORE_NAME": "Well Club",
        "LATITUDE": "41.0007",
        "LONGITUDE": "29.18294",
        "STORE_ADDRESS": "Tersane Cad. NO. 4 Esenkent Umraniye Istanbul 34 TR 34776",
        "STORE_OPEN_AT": 7,
        "STORE_CLOSE_AT": 24,
        "STORE_TYPE": "Starbucks"
    },
    {
        "STORE_NAME": "Pendik Farilya Asia",
        "LATITUDE": "40.88948",
        "LONGITUDE": "29.26406",
        "STORE_ADDRESS": "Fevzi Cakmak Muhsin Yazicioglu Cd No1 34899 Pendik Istanbul Pendik/Istanbul 34 TR 34899",
        "STORE_OPEN_AT": 7,
        "STORE_CLOSE_AT": 24,
        "STORE_TYPE": "Starbucks"
    },
    {
        "STORE_NAME": "Watergarden",
        "LATITUDE": "40.9979",
        "LONGITUDE": "29.09775",
        "STORE_ADDRESS": "Barbaros mah. Uzman Sok.12-1 Atasehir Istanbul 34 TR 00000",
        "STORE_OPEN_AT": 7,
        "STORE_CLOSE_AT": 24,
        "STORE_TYPE": "Starbucks"
    },
    {
        "STORE_NAME": "Umraniye Elalmis Caddesi No15",
        "LATITUDE": "41.00884",
        "LONGITUDE": "29.13531",
        "STORE_ADDRESS": "Tatlisu Mahallesi Elalmis Caddesi No15 Umraniye Istanbul Istanbul - Umraniye 34 TR 34774",
        "STORE_OPEN_AT": 7,
        "STORE_CLOSE_AT": 24,
        "STORE_TYPE": "Starbucks"
    },
    {
        "STORE_NAME": "Starbucks",
        "LATITUDE": "40.89658",
        "LONGITUDE": "29.27012",
        "STORE_ADDRESS": "Sanayi Mh Istanbul 34 TR 34906",
        "STORE_OPEN_AT": 7,
        "STORE_CLOSE_AT": 24,
        "STORE_TYPE": "Starbucks"
    },
    {
        "STORE_NAME": "Goztepe Loft",
        "LATITUDE": "40.97928",
        "LONGITUDE": "29.06722",
        "STORE_ADDRESS": "Goztepe Mah Tutuncu Mehmet Efendi Cad 84 Istanbul 34 TR 34730",
        "STORE_OPEN_AT": 7,
        "STORE_CLOSE_AT": 24,
        "STORE_TYPE": "Starbucks"
    },
    {
        "STORE_NAME": "Atlas Park",
        "LATITUDE": "40.96975",
        "LONGITUDE": "29.25627",
        "STORE_ADDRESS": "Fatih Bulvari No. 67 Sultanbeyli Istanbul 34 TR 34920",
        "STORE_OPEN_AT": 7,
        "STORE_CLOSE_AT": 24,
        "STORE_TYPE": "Starbucks"
    },
    {
        "STORE_NAME": "Cekmekoy Eltes",
        "LATITUDE": "41.01121",
        "LONGITUDE": "29.17966",
        "STORE_ADDRESS": "Kemerdere Mevkii Baraj Yolu Cad Eltes Istanbul 34 TR 34799",
        "STORE_OPEN_AT": 7,
        "STORE_CLOSE_AT": 24,
        "STORE_TYPE": "Starbucks"
    }
]